Time;Pos_x;Pos_y;Pos_z;Vel_x;Vel_y;Vel_z;Vel_norm;Acc_x;Acc_y;Acc_z;Acc_norm;Thrust;Omg_x;Omg_y;Omg_z;Omg_norm;Alpha;Quat_w;Quat_x;Quat_y;Quat_z;Yaw;Pitch;Roll
0;4.5;0;1.5;0;0;0;0;0;0;0;0;9.8;0;0;0;0;0;0.707;-0;-0;0.707;89.9827;-0;-0
0.02;4.5;1.04131e-05;1.5;-0.000318965;0.00155526;-0.000309087;0.00161743;-0.0320942;0.154185;-0.03056;0.160427;9.77071;2.60106e-22;-0.0158275;-0.00329499;0.0161669;0;0.706986;-0.00673976;0.00441724;0.706968;89.9827;-0.188168;0.904125
0.04;4.49998;8.22342e-05;1.49998;-0.00129149;0.00611419;-0.0012086;0.0063649;-0.0653473;0.300389;-0.0590494;0.313035;9.7458;-6.43459e-21;-0.0309931;-0.00674567;0.0317187;0;0.706949;-0.0132681;0.00852582;0.706875;89.9827;-0.384248;1.76616
0.06;4.49994;0.000273949;1.49995;-0.00294022;0.0135185;-0.00265755;0.0140875;-0.0997056;0.438744;-0.0855121;0.457985;9.7249;-4.18503e-21;-0.0454615;-0.0103423;0.0466231;0;0.706893;-0.0195793;0.0123251;0.706729;89.9827;-0.587863;2.58563
0.08;4.49986;0.000640905;1.49987;-0.00528673;0.0236125;-0.00461586;0.0246334;-0.135115;0.569381;-0.109992;0.59544;9.70766;1.52433e-19;-0.0592049;-0.014075;0.0608549;0;0.706823;-0.0256688;0.0158155;0.706534;89.9827;-0.798627;3.36224
0.1;4.49973;0.00123536;1.49976;-0.00835149;0.0362431;-0.00704429;0.0378541;-0.171523;0.69243;-0.132532;0.725565;9.69375;-1.38763e-19;-0.0722021;-0.0179339;0.074396;0;0.706745;-0.031533;0.0189987;0.706296;89.9827;-1.01614;4.09585
0.12;4.49952;0.00210654;1.49959;-0.0121539;0.05126;-0.0099045;0.0536041;-0.208874;0.808023;-0.153177;0.848523;9.68286;1.79781e-19;-0.0844386;-0.0219089;0.0872346;0;0.706661;-0.0371692;0.0218772;0.706022;89.9827;-1.24001;4.78645
0.14;4.49923;0.00330068;1.49936;-0.0167124;0.0685152;-0.013159;0.0717412;-0.247115;0.91629;-0.171969;0.964482;9.67469;-6.47288e-20;-0.0959051;-0.0259901;0.0993643;0;0.706577;-0.0425755;0.0244543;0.705717;89.9827;-1.4698;5.43418
0.16;4.49885;0.0048611;1.49906;-0.0220441;0.0878636;-0.0167712;0.0921262;-0.286192;1.01736;-0.188954;1.07361;9.66898;-3.2136e-19;-0.106598;-0.0301676;0.110784;0;0.706494;-0.0477508;0.0267343;0.705386;89.9827;-1.70511;6.03928
0.18;4.49835;0.00682823;1.49869;-0.0281653;0.109163;-0.0207054;0.114623;-0.326052;1.11137;-0.204174;1.17607;9.66547;-2.82304e-20;-0.116517;-0.0344316;0.121498;0;0.706416;-0.0526947;0.0287221;0.705034;89.9827;-1.9455;6.60208
0.2;4.49772;0.00923967;1.49823;-0.035091;0.132272;-0.0249267;0.139099;-0.366641;1.19844;-0.217674;1.27204;9.66394;-3.78762e-19;-0.125666;-0.0387725;0.131512;0;0.706345;-0.0574072;0.0304229;0.704665;89.9827;-2.19054;7.12304
0.22;4.49694;0.0121303;1.49769;-0.0428354;0.157055;-0.0294012;0.165425;-0.407904;1.27872;-0.229496;1.36168;9.66416;-2.6598e-19;-0.134053;-0.0431809;0.140836;0;0.706283;-0.0618891;0.0318429;0.704286;89.9827;-2.4398;7.60267
0.24;4.496;0.0155321;1.49705;-0.0514114;0.183376;-0.0340957;0.193475;-0.449789;1.35232;-0.239686;1.44517;9.66596;9.11914e-19;-0.141689;-0.0476473;0.149486;0;0.70623;-0.0661415;0.0329883;0.703899;89.9827;-2.69283;8.04155
0.26;4.49488;0.0194747;1.49632;-0.0608308;0.211104;-0.038978;0.223125;-0.492241;1.41938;-0.248285;1.52269;9.66914;8.61522e-19;-0.148584;-0.0521626;0.157475;0;0.706188;-0.0701658;0.033866;0.70351;89.9827;-2.94921;8.44034
0.28;4.49356;0.0239848;1.49549;-0.0711044;0.240109;-0.0440168;0.254255;-0.535207;1.48003;-0.255339;1.59441;9.67355;-8.42102e-19;-0.154755;-0.0567178;0.164821;0;0.706159;-0.0739638;0.0344829;0.70312;89.9827;-3.20848;8.79973
0.3;4.49203;0.0290867;1.49456;-0.0822421;0.270264;-0.0491816;0.286749;-0.578632;1.53441;-0.260891;1.66051;9.67904;7.09063e-19;-0.160215;-0.0613043;0.171543;0;0.706141;-0.0775377;0.0348465;0.702735;89.9827;-3.47021;9.12045
0.32;4.49026;0.0348022;1.49352;-0.0942524;0.301444;-0.0544427;0.320493;-0.622463;1.58263;-0.264985;1.72116;9.68549;-1.36868e-18;-0.164983;-0.0659133;0.177662;0;0.706135;-0.0808898;0.0349642;0.702357;89.9827;-3.73396;9.4033
0.34;4.48825;0.0411505;1.49238;-0.107143;0.333529;-0.0597715;0.355378;-0.666647;1.62484;-0.267664;1.77656;9.69278;-6.68009e-19;-0.169075;-0.0705366;0.183199;0;0.706141;-0.0840226;0.0348437;0.701989;89.9826;-3.99929;9.64907
0.36;4.48597;0.0481486;1.49113;-0.12092;0.366398;-0.0651401;0.391296;-0.711129;1.66116;-0.268972;1.82689;9.70081;-2.18371e-18;-0.172511;-0.0751659;0.188175;0;0.706158;-0.0869389;0.0344928;0.701634;89.9826;-4.26577;9.85861
0.38;4.48341;0.0558109;1.48978;-0.13559;0.399937;-0.0705216;0.428144;-0.755855;1.69173;-0.268953;1.87233;9.70949;2.57982e-18;-0.175309;-0.0797933;0.192614;0;0.706186;-0.0896416;0.0339193;0.701294;89.9826;-4.53298;10.0328
0.4;4.48054;0.0641497;1.48831;-0.151156;0.43403;-0.0758897;0.465821;-0.800773;1.71667;-0.267651;1.91307;9.71874;-1.1334e-18;-0.177487;-0.0844109;0.196537;0;0.706223;-0.0921337;0.0331313;0.700971;89.9826;-4.80048;10.1724
0.42;4.47736;0.0731751;1.48674;-0.167622;0.468567;-0.0812193;0.504231;-0.845827;1.73612;-0.265108;1.94932;9.72852;0.41694;-0.230704;-0.0233793;0.477085;87.6484;0.572219;-0.0890069;0.0494029;0.813573;109.868;-1.23066;11.6239
0.44;4.47383;0.0828947;1.48506;-0.184989;0.503439;-0.0864861;0.543279;-0.890965;1.75021;-0.26137;1.98126;9.73874;0.425043;-0.236373;-0.0258063;0.487031;87.3294;0.568589;-0.0913228;0.0491827;0.815871;110.378;-1.35214;11.8341
0.46;4.46995;0.0933142;1.48328;-0.20326;0.538541;-0.0916665;0.582875;-0.936132;1.75907;-0.25648;2.00909;9.74936;0.43331;-0.241576;-0.0283659;0.496912;87.0313;0.564892;-0.0935039;0.0487783;0.818213;110.897;-1.47938;12.0209
0.48;4.46569;0.104437;1.4814;-0.222434;0.573768;-0.0967379;0.622933;-0.981275;1.76283;-0.250481;2.03303;9.76035;0.441743;-0.246315;-0.0310592;0.506727;86.7529;0.561125;-0.0955551;0.048196;0.820599;111.427;-1.61238;12.1854
0.5;4.46105;0.116265;1.47941;-0.242511;0.609021;-0.101679;0.663367;-1.02634;1.76161;-0.243418;2.05327;9.77167;0.450341;-0.250591;-0.033887;0.516479;86.4934;0.557286;-0.0974815;0.047442;0.823029;111.968;-1.75112;12.3285
0.52;4.45599;0.128797;1.47733;-0.263487;0.6442;-0.106468;0.704099;-1.07127;1.75556;-0.235333;2.07002;9.78329;0.459105;-0.254408;-0.0368502;0.526174;86.2514;0.553372;-0.099288;0.0465222;0.825503;112.519;-1.89558;12.4514
0.54;4.4505;0.142032;1.47516;-0.28536;0.679212;-0.111085;0.74505;-1.11602;1.7448;-0.226271;2.08351;9.79521;0.468036;-0.257768;-0.0399493;0.535815;86.0261;0.54938;-0.100979;0.0454428;0.82802;113.082;-2.04573;12.555
0.56;4.44457;0.155964;1.47289;-0.308126;0.713962;-0.115512;0.786147;-1.16053;1.72946;-0.216275;2.09396;9.8074;0.477134;-0.260675;-0.0431844;0.545411;85.8164;0.545308;-0.10256;0.0442095;0.83058;113.655;-2.20154;12.6402
0.58;4.43817;0.170588;1.47054;-0.33178;0.748361;-0.11973;0.827319;-1.20474;1.70968;-0.20539;2.10157;9.81987;0.486398;-0.263135;-0.0465557;0.554969;85.6212;0.541154;-0.104034;0.0428281;0.833183;114.24;-2.36297;12.7079
0.6;4.43129;0.185896;1.4681;-0.356314;0.78232;-0.123722;0.8685;-1.24861;1.68558;-0.193658;2.10659;9.83259;0.49583;-0.265152;-0.0500629;0.564499;85.4397;0.536913;-0.105407;0.0413043;0.835826;114.836;-2.52999;12.7592
0.62;4.42391;0.201877;1.46559;-0.381721;0.815756;-0.127471;0.909625;-1.29208;1.6573;-0.181124;2.10925;9.84559;0.505428;-0.266734;-0.0537054;0.574011;85.2707;0.532583;-0.106681;0.0396435;0.838511;115.444;-2.70254;12.7949
0.64;4.41602;0.218522;1.46301;-0.407994;0.848585;-0.130962;0.950635;-1.33509;1.62497;-0.167831;2.10978;9.85884;0.515192;-0.267889;-0.0574824;0.583516;85.1134;0.528162;-0.107862;0.0378512;0.841235;116.063;-2.88056;12.816
0.66;4.40759;0.235816;1.46035;-0.435122;0.880729;-0.13418;0.991473;-1.3776;1.58871;-0.153824;2.10842;9.87238;0.525121;-0.268624;-0.0613926;0.593026;84.9669;0.523646;-0.108953;0.0359328;0.843997;116.695;-3.06399;12.8232
0.68;4.39861;0.253746;1.45764;-0.463094;0.912109;-0.137111;1.03208;-1.41954;1.54866;-0.139145;2.10542;9.88619;0.535213;-0.268951;-0.0654345;0.602552;84.8301;0.519032;-0.109957;0.0338936;0.846797;117.339;-3.25275;12.8175
0.7;4.38906;0.272295;1.45487;-0.491899;0.942651;-0.139742;1.07242;-1.46086;1.50495;-0.123838;2.10103;9.90028;0.545466;-0.26888;-0.0696064;0.612107;84.7021;0.514317;-0.110879;0.0317389;0.849632;117.995;-3.44678;12.7997
0.72;4.37892;0.291446;1.45205;-0.521524;0.972283;-0.14206;1.11243;-1.50152;1.45771;-0.107948;2.0955;9.91468;0.555878;-0.268423;-0.0739059;0.621702;84.5821;0.509498;-0.111721;0.0294738;0.852502;118.664;-3.64596;12.7706
0.74;4.36819;0.31118;1.44919;-0.551955;1.00094;-0.144056;1.15208;-1.54145;1.40707;-0.0915179;2.08909;9.92938;0.566445;-0.267595;-0.0783305;0.63135;84.4692;0.504572;-0.112488;0.0271035;0.855405;119.345;-3.85022;12.7311
0.76;4.35684;0.331476;1.44629;-0.583177;1.02854;-0.145718;1.19132;-1.58061;1.35317;-0.0745913;2.08205;9.9444;0.577163;-0.26641;-0.0828772;0.641062;84.3625;0.499536;-0.113182;0.0246331;0.858338;120.039;-4.05943;12.682
0.78;4.34486;0.352314;1.44336;-0.615174;1.05504;-0.147037;1.23011;-1.61893;1.29612;-0.0572122;2.07464;9.95974;0.588028;-0.264883;-0.0875428;0.650848;84.2611;0.494388;-0.113808;0.0220677;0.861301;120.746;-4.27348;12.6241
0.8;4.33223;0.37367;1.44041;-0.647928;1.08037;-0.148004;1.26843;-1.65637;1.23607;-0.0394241;2.06712;9.97542;0.599033;-0.263032;-0.0923235;0.660719;84.1641;0.489125;-0.114367;0.0194123;0.864291;121.467;-4.49223;12.5581
0.82;4.31894;0.395521;1.43745;-0.681423;1.10447;-0.148611;1.30624;-1.69287;1.17315;-0.021271;2.05975;9.99145;0.610172;-0.260874;-0.0972152;0.670683;84.0709;0.483743;-0.114862;0.0166719;0.867306;122.2;-4.71556;12.4849
0.84;4.30497;0.41784;1.43447;-0.715637;1.12728;-0.148852;1.34352;-1.72838;1.10748;-0.0027964;2.05276;10.0078;0.621438;-0.258428;-0.102214;0.680748;83.9804;0.47824;-0.115298;0.0138516;0.870344;122.947;-4.94329;12.4052
0.86;4.29031;0.440603;1.4315;-0.750551;1.14875;-0.148721;1.38024;-1.76285;1.03919;0.0159559;2.04641;10.0245;0.632821;-0.255713;-0.107314;0.690918;83.892;0.472614;-0.115676;0.0109564;0.873403;123.707;-5.17528;12.3198
0.88;4.27494;0.463781;1.42853;-0.786143;1.16883;-0.148212;1.41639;-1.79621;0.96843;0.0349421;2.04094;10.0416;0.644313;-0.25275;-0.11251;0.7012;83.8048;0.466863;-0.116;0.00799111;0.87648;124.481;-5.41134;12.2294
0.9;4.25886;0.487346;1.42557;-0.822392;1.18747;-0.147322;1.45193;-1.82842;0.895313;0.0541185;2.03657;10.0591;0.655902;-0.249561;-0.117798;0.711593;83.7181;0.460984;-0.116273;0.00496086;0.879573;125.269;-5.65128;12.1348
0.92;4.24204;0.51127;1.42263;-0.859272;1.20463;-0.146047;1.48688;-1.85942;0.819975;0.0734414;2.03352;10.0769;0.667577;-0.246166;-0.123171;0.7221;83.6311;0.454974;-0.116496;0.00187056;0.882679;126.071;-5.89489;12.0366
0.94;4.22448;0.535521;1.41973;-0.89676;1.22025;-0.144384;1.5212;-1.88916;0.742547;0.0928672;2.03198;10.095;0.679324;-0.242589;-0.128623;0.732717;83.543;0.448833;-0.116673;-0.00127486;0.885795;126.886;-6.14198;11.9356
0.96;4.20617;0.56007;1.41686;-0.93483;1.23431;-0.142332;1.55489;-1.91759;0.66316;0.112352;2.03213;10.1135;0.691128;-0.23885;-0.134148;0.74344;83.4531;0.442559;-0.116806;-0.00447046;0.888919;127.716;-6.39229;11.8326
0.98;4.18708;0.584883;1.41404;-0.973454;1.24677;-0.13989;1.58796;-1.94464;0.581946;0.131852;2.03413;10.1323;0.702975;-0.234974;-0.139739;0.754264;83.3608;0.436149;-0.116897;-0.00771132;0.892047;128.559;-6.6456;11.728
1;4.16722;0.609929;1.41127;-1.01261;1.25758;-0.137058;1.62039;-1.97028;0.499034;0.151324;2.03812;10.1514;0.714846;-0.230983;-0.145388;0.765177;83.2654;0.429603;-0.116949;-0.0109926;0.895177;129.416;-6.90164;11.6228
1.02;4.14658;0.635175;1.40856;-1.05226;1.26672;-0.133837;1.65219;-1.99443;0.414555;0.170723;2.0442;10.1709;0.726725;-0.2269;-0.151088;0.77617;83.1662;0.422919;-0.116965;-0.0143093;0.898305;130.288;-7.16014;11.5174
1.04;4.12513;0.660587;1.40592;-1.09237;1.27415;-0.13023;1.68336;-2.01706;0.328642;0.190007;2.05247;10.1906;0.738591;-0.222747;-0.156832;0.787229;83.0626;0.416098;-0.116947;-0.0176567;0.901428;131.174;-7.42082;11.4125
1.06;4.10288;0.68613;1.40335;-1.13293;1.27986;-0.126238;1.71391;-2.0381;0.241423;0.209131;2.06298;10.2105;0.750423;-0.218547;-0.162613;0.798336;82.9541;0.409137;-0.116896;-0.02103;0.904543;132.073;-7.68339;11.3087
1.08;4.07981;0.711769;1.40087;-1.17389;1.2838;-0.121866;1.74385;-2.05751;0.153032;0.228052;2.07576;10.2307;0.762201;-0.21432;-0.168422;0.809474;82.8401;0.402037;-0.116814;-0.0244244;0.907646;132.987;-7.94752;11.2066
1.1;4.05592;0.73747;1.39848;-1.21522;1.28597;-0.117117;1.77319;-2.07522;0.0635971;0.246725;2.0908;10.2511;0.7739;-0.210089;-0.174251;0.820623;82.7201;0.394798;-0.116705;-0.0278351;0.910735;133.915;-8.2129;11.1068
1.12;4.0312;0.763196;1.39619;-1.25688;1.28634;-0.111999;1.80194;-2.09119;-0.0267493;0.265108;2.1081;10.2716;0.785497;-0.205874;-0.180093;0.831759;82.5936;0.38742;-0.116569;-0.0312576;0.913804;134.856;-8.4792;11.0098
1.14;4.00564;0.788911;1.394;-1.29885;1.2849;-0.106515;1.83011;-2.10536;-0.117877;0.283157;2.12758;10.2922;0.796967;-0.201694;-0.185939;0.842858;82.4603;0.379903;-0.116409;-0.0346872;0.916852;135.811;-8.74606;10.9161
1.16;3.97924;0.81458;1.39193;-1.34109;1.28162;-0.100675;1.85774;-2.11767;-0.209654;0.300827;2.14919;10.3129;0.808284;-0.197567;-0.191781;0.853895;82.3197;0.372249;-0.116225;-0.0381195;0.919874;136.78;-9.01314;10.8261
1.18;3.952;0.840164;1.38998;-1.38355;1.27651;-0.0944851;1.88483;-2.12808;-0.30195;0.318075;2.17281;10.3336;0.819423;-0.193511;-0.197611;0.864841;82.1717;0.364458;-0.11602;-0.04155;0.922866;137.763;-9.28005;10.7404
1.2;3.9239;0.865628;1.38815;-1.4262;1.26954;-0.087955;1.91141;-2.13653;-0.394635;0.334857;2.19833;10.3543;0.830355;-0.189542;-0.203421;0.875669;82.0158;0.356532;-0.115794;-0.0449743;0.925825;138.758;-9.54643;10.6592
1.22;3.89495;0.890933;1.38646;-1.46899;1.26072;-0.0810942;1.93751;-2.14297;-0.487577;0.351131;2.22561;10.3749;0.841054;-0.185675;-0.209203;0.886348;81.8519;0.348472;-0.115549;-0.0483882;0.928748;139.767;-9.81188;10.583
1.24;3.86514;0.916044;1.38491;-1.5119;1.25004;-0.0739135;1.96313;-2.14733;-0.580645;0.366851;2.2545;10.3954;0.851491;-0.181922;-0.21495;0.896848;81.68;0.34028;-0.115287;-0.0517876;0.93163;140.789;-10.076;10.5121
1.26;3.83447;0.940922;1.38351;-1.55487;1.23749;-0.0664242;1.98832;-2.14958;-0.673709;0.381974;2.28484;10.4156;0.86164;-0.178296;-0.220653;0.907139;81.4999;0.331959;-0.115006;-0.0551684;0.934468;141.823;-10.3385;10.4467
1.28;3.80295;0.965531;1.38226;-1.59787;1.22309;-0.0586388;2.0131;-2.14965;-0.766638;0.396456;2.31644;10.4356;0.871474;-0.174806;-0.226306;0.91719;81.3117;0.323512;-0.114709;-0.0585268;0.937259;142.87;-10.5988;10.387
1.3;3.77056;0.989834;1.38116;-1.64084;1.20683;-0.0505705;2.03749;-2.14749;-0.8593;0.410254;2.34913;10.4552;0.880964;-0.17146;-0.231901;0.926971;81.1154;0.31494;-0.114396;-0.0618591;0.939999;143.928;-10.8567;10.3334
1.32;3.73731;1.01379;1.38024;-1.68375;1.18872;-0.0422335;2.06152;-2.14304;-0.951566;0.423324;2.38271;10.4744;0.890085;-0.168265;-0.237432;0.93645;80.9112;0.306248;-0.114066;-0.0651615;0.942684;144.999;-11.1116;10.2857
1.34;3.70321;1.03737;1.37948;-1.72655;1.16877;-0.0336427;2.08522;-2.13626;-1.0433;0.435623;2.417;10.4931;0.898812;-0.165226;-0.242892;0.9456;80.6993;0.297438;-0.11372;-0.0684306;0.945311;146.08;-11.3632;10.2443
1.36;3.66825;1.06053;1.37889;-1.76919;1.14699;-0.024814;2.10861;-2.12709;-1.13438;0.447105;2.45178;10.5112;0.907119;-0.162344;-0.248276;0.954391;80.4801;0.288514;-0.113357;-0.0716631;0.947878;147.173;-11.6111;10.2089
1.38;3.63244;1.08324;1.37849;-1.81162;1.1234;-0.0157642;2.13172;-2.11548;-1.22467;0.457729;2.48688;10.5287;0.914985;-0.159622;-0.253577;0.962797;80.2539;0.279481;-0.112977;-0.0748558;0.95038;148.276;-11.855;10.1797
1.4;3.59579;1.10545;1.37826;-1.85379;1.09801;-0.00651085;2.15458;-2.10136;-1.31404;0.46745;2.52209;10.5455;0.922387;-0.157057;-0.25879;0.970791;80.0213;0.270341;-0.112579;-0.0780057;0.952814;149.39;-12.0943;10.1565
1.42;3.55829;1.12715;1.37823;-1.89566;1.07085;0.00292749;2.17721;-2.0847;-1.40235;0.476224;2.55721;10.5614;0.929305;-0.154646;-0.26391;0.978352;79.7827;0.2611;-0.112161;-0.08111;0.955178;150.513;-12.3288;10.1392
1.44;3.51996;1.14828;1.37838;-1.93716;1.04193;0.0125315;2.19963;-2.06542;-1.48949;0.484007;2.59207;10.5765;0.935723;-0.152386;-0.268934;0.985456;79.5389;0.251762;-0.111723;-0.0841659;0.95747;151.645;-12.5582;10.1275
1.46;3.48081;1.16881;1.37873;-1.97825;1.01127;0.0222809;2.22186;-2.04349;-1.57531;0.490756;2.62646;10.5906;0.941625;-0.150267;-0.273857;0.992086;79.2906;0.242331;-0.111262;-0.0871711;0.959685;152.786;-12.7819;10.1211
1.48;3.44084;1.18872;1.37927;-2.01888;0.978922;0.0321546;2.24393;-2.01885;-1.65968;0.496428;2.66021;10.6036;0.946997;-0.148282;-0.278677;0.998225;79.0385;0.232812;-0.110777;-0.090123;0.961823;153.935;-12.9998;10.1198
1.5;3.40006;1.20796;1.38002;-2.05899;0.944898;0.0421305;2.26584;-1.99144;-1.74248;0.500978;2.69315;10.6154;0.95183;-0.14642;-0.28339;1.00386;78.7836;0.22321;-0.110265;-0.0930196;0.96388;155.091;-13.2115;10.123
1.52;3.35848;1.2265;1.38096;-2.09852;0.909234;0.0521859;2.28762;-1.9612;-1.82358;0.504362;2.72509;10.626;0.956117;-0.144668;-0.287994;1.00897;78.5269;0.213529;-0.109723;-0.0958589;0.965855;156.255;-13.4168;10.1304
1.54;3.31612;1.24432;1.3821;-2.13742;0.871967;0.0622969;2.30928;-1.92809;-1.90284;0.506538;2.75589;10.6353;0.959853;-0.143011;-0.292489;1.01357;78.2693;0.203775;-0.109148;-0.0986389;0.967745;157.425;-13.6153;10.1414
1.56;3.27299;1.26137;1.38345;-2.17563;0.833134;0.0724391;2.33082;-1.89206;-1.98012;0.50746;2.78537;10.6431;0.963036;-0.141432;-0.296872;1.01763;78.012;0.193953;-0.108537;-0.101358;0.96955;158.602;-13.8068;10.1553
1.58;3.2291;1.27763;1.385;-2.21308;0.792776;0.0825867;2.35224;-1.85304;-2.05532;0.507087;2.8134;10.6494;0.965669;-0.139914;-0.301144;1.02117;77.7561;0.184066;-0.107885;-0.104015;0.971267;159.783;-13.9911;10.1716
1.6;3.18447;1.29307;1.38675;-2.24973;0.750936;0.0927136;2.37356;-1.81098;-2.12828;0.505372;2.83983;10.6541;0.967758;-0.138436;-0.305304;1.02417;77.5031;0.174121;-0.10719;-0.106608;0.972895;160.97;-14.1681;10.1895
1.62;3.13912;1.30766;1.38871;-2.2855;0.707661;0.102792;2.39476;-1.76584;-2.19888;0.502274;2.86453;10.6571;0.96931;-0.136977;-0.309355;1.02666;77.2541;0.164122;-0.106445;-0.109135;0.974434;162.161;-14.3375;10.2082
1.64;3.09306;1.32137;1.39087;-2.32034;0.662998;0.112795;2.41584;-1.71755;-2.26699;0.497749;2.88738;10.6583;0.97034;-0.135512;-0.313296;1.02863;77.0106;0.154073;-0.105646;-0.111597;0.975881;163.356;-14.4993;10.2268
1.66;3.04631;1.33417;1.39322;-2.35418;0.616999;0.122693;2.43678;-1.66606;-2.33247;0.491751;2.90827;10.6577;0.970862;-0.134017;-0.317132;1.0301;76.774;0.143979;-0.104788;-0.113991;0.977238;164.554;-14.6534;10.2446
1.68;2.9989;1.34604;1.39577;-2.38696;0.569717;0.132455;2.45758;-1.61132;-2.39521;0.484239;2.92709;10.6551;0.970896;-0.132464;-0.320863;1.03109;76.5458;0.133844;-0.103864;-0.116318;0.978502;165.754;-14.7997;10.2603
1.7;2.95084;1.35695;1.39852;-2.41861;0.52121;0.142052;2.47821;-1.55328;-2.45506;0.475168;2.94377;10.6505;0.970467;-0.130824;-0.324495;1.03161;76.3276;0.123673;-0.102868;-0.118575;0.979674;166.957;-14.9383;10.2732
1.72;2.90216;1.36688;1.40145;-2.44907;0.471535;0.151451;2.49864;-1.49188;-2.51189;0.464496;2.95822;10.6438;0.969601;-0.129068;-0.32803;1.03169;76.1211;0.113468;-0.101794;-0.120763;0.980753;168.161;-15.069;10.2819
1.74;2.85289;1.3758;1.40457;-2.47826;0.420755;0.160621;2.51886;-1.42721;-2.56563;0.452238;2.97051;10.6351;0.968349;-0.127178;-0.331479;1.03138;75.9273;0.103235;-0.100639;-0.122884;0.981739;169.366;-15.1925;10.2861
1.76;2.80304;1.3837;1.40788;-2.50614;0.368931;0.16953;2.53881;-1.3595;-2.61626;0.43847;2.98082;10.6243;0.966777;-0.125154;-0.334851;1.03075;75.7466;0.0929776;-0.0994065;-0.12494;0.98263;170.573;-15.3092;10.2857
1.78;2.75265;1.39056;1.41135;-2.53263;0.316125;0.17815;2.55849;-1.28897;-2.66375;0.423271;2.98934;10.6117;0.964944;-0.123;-0.338159;1.02985;75.5794;0.0827014;-0.0980996;-0.126935;0.983424;171.779;-15.4199;10.2807
1.8;2.70174;1.39634;1.415;-2.55768;0.262402;0.186452;2.57786;-1.21587;-2.70808;0.40672;2.99624;10.5974;0.962904;-0.120717;-0.34141;1.02875;75.4258;0.07241;-0.0967221;-0.128871;0.98412;172.985;-15.5251;10.2714
1.82;2.65035;1.40105;1.41881;-2.58125;0.207823;0.194411;2.59689;-1.14043;-2.74923;0.388898;3.00168;10.5814;0.960701;-0.118313;-0.344611;1.02747;75.286;0.0621069;-0.0952778;-0.13075;0.984717;174.192;-15.6252;10.258
1.84;2.5985;1.40465;1.42277;-2.60328;0.152454;0.202;2.61555;-1.06287;-2.78717;0.369883;3.0058;10.5639;0.958374;-0.115792;-0.347766;1.02607;75.16;0.0517951;-0.0937704;-0.132574;0.985214;175.397;-15.7206;10.2407
1.86;2.54623;1.40714;1.42689;-2.62375;0.096358;0.209198;2.63384;-0.983447;-2.82189;0.349755;3.00875;10.545;0.955954;-0.113165;-0.350879;1.02458;75.0477;0.0414775;-0.0922041;-0.134344;0.98561;176.602;-15.8116;10.2198
1.88;2.49357;1.4085;1.43114;-2.64261;0.0395999;0.215984;2.65172;-0.902382;-2.85337;0.328593;3.01065;10.5247;0.953466;-0.110439;-0.353952;1.02302;74.949;0.0311565;-0.0905831;-0.13606;0.985905;177.807;-15.8985;10.1955
1.9;2.44054;1.40872;1.43552;-2.65983;-0.0177551;0.222336;2.66917;-0.819912;-2.88158;0.306477;3.01159;10.5033;0.950931;-0.107625;-0.356985;1.02142;74.8639;0.0208345;-0.0889116;-0.137722;0.986099;179.01;-15.9813;10.1683
1.92;2.38718;1.40779;1.44003;-2.6754;-0.0756414;0.228237;2.68618;-0.736271;-2.9065;0.283485;3.01168;10.4807;0.948361;-0.104735;-0.359975;1.01977;74.792;0.0105137;-0.0871943;-0.139328;0.986191;0.21241;-163.94;-169.862
1.94;2.33353;1.40569;1.44465;-2.68928;-0.133993;0.23367;2.70273;-0.651694;-2.92812;0.259698;3.01098;10.4571;0.945763;-0.101782;-0.36292;1.01811;74.7331;0.000195942;-0.0854358;-0.140879;0.98618;1.41379;-163.865;-169.894
1.96;2.27962;1.40242;1.44937;-2.70146;-0.192744;0.23862;2.71882;-0.566416;-2.9464;0.235195;3.00955;10.4325;0.943141;-0.0987771;-0.365815;1.01641;74.6869;0.0101168;0.0836411;0.142372;-0.986068;2.61406;-163.794;-169.928
1.98;2.22549;1.39798;1.45419;-2.71193;-0.251827;0.243073;2.73442;-0.48067;-2.96133;0.210054;3.00743;10.407;0.940491;-0.095735;-0.368653;1.01469;74.653;0.0204225;0.081815;0.143805;-0.985854;3.81315;-163.728;-169.963
2;2.17116;1.39235;1.45909;-2.72069;-0.311175;0.247018;2.74954;-0.394691;-2.97289;0.184357;3.00463;10.3808;0.937804;-0.0926694;-0.371425;1.01293;74.6312;0.0307193;0.0799629;0.145176;-0.985538;5.01099;-163.665;-170
2.02;2.11667;1.38553;1.46407;-2.72772;-0.37072;0.250445;2.76417;-0.308713;-2.98105;0.158181;3.00116;10.3538;0.935069;-0.0895946;-0.374123;1.01111;74.621;0.0410053;0.0780901;0.146481;-0.98512;6.20748;-163.608;-170.037
2.04;2.06206;1.37752;1.46911;-2.73304;-0.430394;0.253343;2.77829;-0.222971;-2.98579;0.131606;2.997;10.3262;0.932266;-0.0865246;-0.376733;1.00922;74.6221;0.0512783;0.0762021;0.147718;-0.984602;7.40251;-163.556;-170.074
2.06;2.00736;1.36831;1.4742;-2.73664;-0.490128;0.255707;2.79192;-0.137699;-2.9871;0.104712;2.99211;10.298;0.929374;-0.0834736;-0.379244;1.00724;74.634;0.0615361;0.0743045;0.148881;-0.983984;8.59595;-163.51;-170.112
2.08;1.95261;1.35791;1.47933;-2.73855;-0.549855;0.25753;2.80505;-0.0531317;-2.98495;0.0775783;2.98643;10.2693;0.926366;-0.0804553;-0.381639;1.00512;74.6564;0.0717763;0.0724031;0.149967;-0.983267;9.78763;-163.469;-170.148
2.1;1.89783;1.34632;1.4845;-2.73877;-0.609503;0.258809;2.81769;0.0304973;-2.97932;0.0502839;2.9799;10.2401;0.92321;-0.0774828;-0.383903;1.00285;74.6888;0.0819961;0.0705037;0.15097;-0.982452;10.9773;-163.436;-170.184
2.12;1.84307;1.33353;1.48968;-2.73734;-0.669004;0.259541;2.82983;0.112953;-2.97019;0.0229082;2.97243;10.2104;0.919871;-0.0745686;-0.386016;1.00037;74.731;0.0921928;0.0686124;0.151885;-0.98154;12.1648;-163.41;-170.219
2.14;1.78835;1.31956;1.49487;-2.73426;-0.728287;0.259725;2.84149;0.194002;-2.95754;-0.00446923;2.96389;10.1804;0.91631;-0.0717243;-0.387958;0.997637;74.7824;0.102363;0.066735;0.152707;-0.980534;13.3497;-163.393;-170.252
2.16;1.73371;1.30441;1.50007;-2.72959;-0.787282;0.259362;2.85267;0.273408;-2.94134;-0.0317691;2.95419;10.15;0.912484;-0.06896;-0.389708;0.994613;74.8427;0.112503;0.0648778;0.153428;-0.979434;14.5318;-163.384;-170.283
2.18;1.67917;1.28807;1.50524;-2.72334;-0.845917;0.258455;2.86338;0.350939;-2.92157;-0.058912;2.94316;10.1193;0.908344;-0.0662848;-0.391241;0.991238;74.9117;0.12261;0.0630468;0.154043;-0.978244;15.7105;-163.386;-170.313
2.2;1.62478;1.27057;1.5104;-2.71556;-0.904121;0.257008;2.87363;0.426359;-2.89822;-0.0858185;2.93067;10.0884;0.903841;-0.0637061;-0.392532;0.987456;74.9891;0.132678;0.0612481;0.154543;-0.976965;16.8853;-163.398;-170.34
2.22;1.57056;1.25191;1.51552;-2.7063;-0.961822;0.255025;2.88344;0.499434;-2.87126;-0.112409;2.91654;10.0572;0.898921;-0.0612296;-0.393553;0.983205;75.0745;0.142703;0.059488;0.154921;-0.9756;18.0558;-163.423;-170.365
2.24;1.51654;1.2321;1.5206;-2.6956;-1.01895;0.252514;2.8928;0.56993;-2.84067;-0.138605;2.90059;10.0258;0.893525;-0.058859;-0.394274;0.978419;75.1679;0.15268;0.0577724;0.155168;-0.974152;19.2211;-163.46;-170.388
2.26;1.46275;1.21116;1.52562;-2.68352;-1.07542;0.249484;2.90174;0.637613;-2.80642;-0.164326;2.88263;9.99426;0.887593;-0.0565959;-0.394664;0.973028;75.2689;0.162604;0.0561076;0.155275;-0.972625;20.3807;-163.512;-170.409
2.28;1.40921;1.18909;1.53057;-2.67012;-1.13118;0.245944;2.91026;0.702247;-2.76851;-0.189493;2.86246;9.96255;0.881061;-0.0544399;-0.394688;0.96696;75.3774;0.172467;0.0544995;0.155234;-0.971023;21.5336;-163.58;-170.427
2.3;1.35595;1.16592;1.53545;-2.65546;-1.18614;0.241908;2.91837;0.7636;-2.7269;-0.214027;2.83987;9.93073;0.873863;-0.0523878;-0.394313;0.960137;75.4935;0.182263;0.052954;0.155035;-0.969349;22.6789;-163.664;-170.444
2.32;1.303;1.14165;1.54025;-2.6396;-1.24023;0.237388;2.92609;0.821436;-2.68157;-0.237848;2.81463;9.89882;0.865928;-0.0504342;-0.393499;0.952479;75.617;0.191986;0.051477;0.154666;-0.96761;23.8156;-163.767;-170.46
2.34;1.25037;1.11631;1.54495;-2.62262;-1.29338;0.232399;2.93343;0.87552;-2.63251;-0.260878;2.78652;9.86687;0.857184;-0.0485709;-0.392207;0.943901;75.748;0.201626;0.0500744;0.154117;-0.965808;24.9425;-163.889;-170.474
2.36;1.1981;1.08992;1.54954;-2.6046;-1.34551;0.226959;2.94038;0.92562;-2.57969;-0.283035;2.7553;9.8349;0.847556;-0.0467874;-0.390396;0.934317;75.8865;0.211176;0.0487518;0.153376;-0.963951;26.0584;-164.032;-170.487
2.38;1.1462;1.0625;1.55402;-2.58563;-1.39654;0.221084;2.94698;0.9715;-2.52309;-0.304242;2.72073;9.80296;0.836965;-0.0450701;-0.38802;0.923635;76.0327;0.220625;0.0475147;0.152431;-0.962044;27.162;-164.197;-170.5
2.4;1.09468;1.03407;1.55838;-2.56577;-1.4464;0.214796;2.95321;1.01293;-2.46269;-0.324419;2.68256;9.77109;0.825333;-0.043403;-0.385033;0.911761;76.1866;0.229965;0.0463686;0.15127;-0.960094;28.2517;-164.387;-170.513
2.42;1.04357;1.00465;1.56261;-2.54514;-1.49502;0.208115;2.95908;1.04966;-2.39847;-0.343486;2.64054;9.73936;0.812574;-0.0417676;-0.381387;0.898598;76.3486;0.239184;0.045319;0.149879;-0.958108;29.3259;-164.602;-170.527
2.44;0.992879;0.974276;1.5667;-2.52382;-1.54232;0.201064;2.9646;1.08148;-2.3304;-0.361364;2.59441;9.70783;0.798605;-0.0401429;-0.377031;0.884044;76.5188;0.248271;0.044371;0.148245;-0.956093;30.383;-164.844;-170.543
2.46;0.942621;0.942969;1.57065;-2.50192;-1.58821;0.193669;2.96977;1.10813;-2.25847;-0.377974;2.54392;9.67656;0.783335;-0.0385054;-0.371911;0.867994;76.6975;0.257214;0.04353;0.146353;-0.954057;31.4211;-165.116;-170.562
2.48;0.892806;0.910758;1.57445;-2.47953;-1.63263;0.185955;2.97458;1.1294;-2.18265;-0.393236;2.48881;9.64565;0.766674;-0.0368301;-0.365971;0.850341;76.885;0.265998;0.0428012;0.144188;-0.952009;32.4383;-165.418;-170.584
2.5;0.843442;0.877674;1.57809;-2.45678;-1.67549;0.177949;2.97904;1.14504;-2.10293;-0.407071;2.42881;9.6152;0.748526;-0.0350899;-0.359155;0.830972;77.0816;0.274611;0.0421896;0.141736;-0.949957;33.4324;-165.752;-170.61
2.52;0.794537;0.843749;1.58156;-2.43377;-1.71672;0.169682;2.98314;1.15482;-2.01927;-0.419399;2.36368;9.58531;0.728795;-0.0332567;-0.351401;0.809772;77.2875;0.283035;0.0417006;0.13898;-0.947911;34.4014;-166.121;-170.642
2.54;0.746093;0.809016;1.58487;-2.41062;-1.75624;0.161184;2.98688;1.15852;-1.93167;-0.430144;2.29315;9.55613;0.707382;-0.0313006;-0.34265;0.786625;77.5031;0.291256;0.041339;0.135905;-0.94588;35.3429;-166.525;-170.68
2.56;0.698112;0.773511;1.58801;-2.38747;-1.79396;0.152487;2.99024;1.15617;-1.84025;-0.439295;2.21726;9.52779;0.684273;-0.0291647;-0.332883;0.761506;77.7293;0.299254;0.0410992;0.132506;-0.943874;36.2545;-166.965;-170.725
2.58;0.650593;0.73727;1.59097;-2.36442;-1.82982;0.143622;2.99322;1.14808;-1.74526;-0.446907;2.13629;9.50044;0.659539;-0.0267711;-0.322122;0.734487;77.9677;0.307009;0.040965;0.12879;-0.941901;37.1336;-167.44;-170.781
2.6;0.603534;0.700331;1.59375;-2.34158;-1.86375;0.13462;2.99578;1.13456;-1.64697;-0.453036;2.0506;9.47423;0.63326;-0.0240494;-0.310398;0.705651;78.2197;0.314502;0.040921;0.124766;-0.939971;37.978;-167.947;-170.849
2.62;0.556928;0.662734;1.59635;-2.31907;-1.89568;0.12551;2.99791;1.11592;-1.54564;-0.45774;1.96056;9.44933;0.605517;-0.0209396;-0.297742;0.675085;78.4865;0.321713;0.0409523;0.120444;-0.938091;38.7855;-168.485;-170.931
2.64;0.510768;0.624518;1.59877;-2.29698;-1.92556;0.11632;2.99957;1.09247;-1.44153;-0.461076;1.86657;9.42589;0.57639;-0.017392;-0.284194;0.64288;78.7687;0.328624;0.0410452;0.115834;-0.93627;39.5541;-169.051;-171.028
2.66;0.465045;0.585725;1.60101;-2.2754;-1.95333;0.107076;3.00073;1.06453;-1.33491;-0.4631;1.76908;9.40407;0.545962;-0.0133679;-0.269795;0.609133;79.0672;0.335218;0.0411869;0.110947;-0.934517;40.282;-169.645;-171.142
2.68;0.419748;0.546399;1.60306;-2.25442;-1.97894;0.0978041;3.00136;1.03239;-1.22603;-0.463871;1.66858;9.38403;0.514313;-0.00884021;-0.254592;0.573945;79.3821;0.341476;0.0413655;0.105797;-0.932839;40.9676;-170.263;-171.273
2.7;0.374864;0.506582;1.60492;-2.23413;-2.00235;0.088529;3.00143;0.996384;-1.11517;-0.463444;1.56562;9.36592;0.481522;-0.00379335;-0.238636;0.537424;79.7136;0.347382;0.0415705;0.100398;-0.931244;41.6094;-170.903;-171.422
2.72;0.330378;0.46632;1.6066;-2.21459;-2.02353;0.0792739;3.0009;0.956813;-1.00259;-0.461878;1.46083;9.34986;0.447667;0.00177623;-0.221982;0.499684;80.0613;0.352922;0.0417923;0.0947636;-0.92974;42.2059;-171.564;-171.588
2.74;0.286275;0.425656;1.60809;-2.19588;-2.04245;0.0700611;2.99973;0.91399;-0.888547;-0.459229;1.35491;9.33599;0.412823;0.00786032;-0.20469;0.46085;80.425;0.358081;0.0420227;0.0889112;-0.928335;42.7562;-172.242;-171.772
2.76;0.242537;0.384637;1.6094;-2.17805;-2.05907;0.0609116;2.9979;0.868226;-0.773305;-0.455554;1.24874;9.32442;0.377064;0.0144391;-0.186824;0.421057;80.8037;0.362844;0.0422544;0.082858;-0.927034;43.2591;-172.937;-171.974
2.78;0.199146;0.343309;1.61053;-2.16117;-2.07337;0.0518454;2.99536;0.819833;-0.657127;-0.45091;1.14336;9.31524;0.340462;0.0214815;-0.168451;0.380462;81.1967;0.3672;0.0424815;0.0766224;-0.925844;43.7138;-173.645;-172.192
2.8;0.156084;0.301718;1.61147;-2.14527;-2.08535;0.0428812;2.99211;0.769123;-0.540279;-0.445355;1.04009;9.30852;0.303086;0.028946;-0.149642;0.339252;81.6026;0.371138;0.0426989;0.070224;-0.92477;44.1196;-174.365;-172.425
2.82;0.113328;0.25991;1.61224;-2.13042;-2.09498;0.0340369;2.98811;0.716406;-0.423021;-0.438946;0.940669;9.30432;0.265006;0.0367813;-0.130472;0.297664;82.0202;0.374647;0.0429028;0.0636835;-0.923819;44.4757;-175.094;-172.673
2.84;0.0708599;0.217934;1.61284;-2.11663;-2.10227;0.0253287;2.98334;0.661994;-0.305618;-0.431739;0.847371;9.30269;0.226292;0.0449272;-0.111017;0.25603;82.4479;0.377719;0.0430904;0.0570224;-0.922994;44.7817;-175.83;-172.933
2.86;0.028656;0.175835;1.61326;-2.10394;-2.10721;0.0167722;2.97778;0.606199;-0.188333;-0.423792;0.763247;9.30362;0.187013;0.0533161;-0.0913554;0.214854;82.8839;0.380346;0.0432596;0.0502631;-0.9223;45.0373;-176.571;-173.205
2.88;-0.0133054;0.133661;1.61351;-2.09239;-2.1098;0.00838161;2.97144;0.549331;-0.0714279;-0.415162;0.692262;9.30711;0.147241;0.0618743;-0.0715684;0.175016;83.3264;0.382523;0.0434093;0.0434288;-0.921739;45.2422;-177.315;-173.486
2.9;-0.0550472;0.0914587;1.61359;-2.08198;-2.11007;0.000169931;2.96429;0.491703;0.0448331;-0.405906;0.639173;9.31313;0.107051;0.0705233;-0.0517369;0.138239;83.7733;0.384245;0.0435391;0.0365434;-0.921316;45.3962;-178.059;-173.775
2.92;-0.0965922;0.049274;1.61352;-2.07272;-2.10802;-0.00785084;2.95635;0.433625;0.160187;-0.396081;0.608746;9.32162;0.0665188;0.0791818;-0.0319428;0.108235;84.2227;0.385509;0.043649;0.0296312;-0.921031;45.4992;-178.801;-174.069
2.94;-0.137964;0.00715331;1.61328;-2.06463;-2.10367;-0.0156699;2.94761;0.37541;0.274371;-0.385744;0.604161;9.33249;0.025728;0.0877671;-0.0122676;0.0922794;84.6724;0.386314;0.0437396;0.022717;-0.920886;45.5514;-179.539;-174.366
2.96;-0.179185;-0.0348577;1.61289;-2.05771;-2.09705;-0.0232776;2.93808;0.317367;0.387122;-0.374953;0.62544;9.34564;-0.015234;0.096197;0.00720798;0.0976622;85.1201;0.386659;0.0438118;0.0158258;-0.920881;45.5528;179.729;-174.665
2.98;-0.22028;-0.0767139;1.61235;-2.05193;-2.0882;-0.0306654;2.92779;0.25981;0.498177;-0.363764;0.669332;9.36095;-0.0562735;0.104392;0.0264047;0.121497;85.5639;0.386547;0.0438665;0.00898269;-0.921018;45.5037;179.005;-174.963
3;-0.26127;-0.118371;1.61167;-2.04731;-2.07714;-0.0378259;2.91675;0.203048;0.607273;-0.352235;0.730806;9.37827;-0.0972897;0.112275;0.0452454;0.1553;86.0015;0.385981;0.0439046;0.00221273;-0.921295;45.4046;178.291;-175.257
3.02;-0.30218;-0.159785;1.61084;-2.04381;-2.06392;-0.0447529;2.90498;0.147394;0.714146;-0.340422;0.804746;9.39742;-0.138174;0.119776;0.0636551;0.193624;86.4309;0.384966;0.043927;-0.0044592;-0.92171;45.2557;177.591;-175.547
3.04;-0.34303;-0.200914;1.60988;-2.0414;-2.04859;-0.0514412;2.89252;0.093159;0.818534;-0.328382;0.886855;9.41823;-0.178811;0.126832;0.0815621;0.233906;86.8502;0.383507;0.0439342;-0.0110085;-0.922263;45.0578;176.904;-175.829
3.06;-0.383843;-0.241715;1.60878;-2.04007;-2.0312;-0.057887;2.87941;0.0406543;0.920173;-0.316174;0.973826;9.44048;-0.219075;0.133387;0.0988979;0.274894;87.2575;0.381614;0.0439259;-0.0174111;-0.92295;44.8116;176.235;-176.103
3.08;-0.424639;-0.282148;1.60756;-2.03976;-2.0118;-0.0640875;2.86567;-0.00980874;1.0188;-0.303853;1.06319;9.46396;-0.258834;0.139396;0.115598;0.315894;87.6514;0.379296;0.0439016;-0.0236435;-0.923767;44.5178;175.585;-176.366
3.1;-0.46544;-0.322174;1.60622;-2.04044;-1.99047;-0.0700408;2.85136;-0.0579187;1.11415;-0.291478;1.1531;9.48844;-0.297948;0.144823;0.1316;0.356462;88.0302;0.376563;0.0438598;-0.0296827;-0.924713;44.1775;174.956;-176.618
3.12;-0.506263;-0.361754;1.60476;-2.04206;-1.96726;-0.0757466;2.83652;-0.103364;1.20597;-0.279104;1.24215;9.51367;-0.336268;0.149643;0.146849;0.396275;88.3929;0.373429;0.0437979;-0.0355068;-0.925781;43.7917;174.35;-176.856
3.14;-0.547128;-0.400852;1.60319;-2.04456;-1.94225;-0.0812054;2.8212;-0.145834;1.29398;-0.26679;1.32922;9.5394;-0.373638;0.153844;0.161292;0.435072;88.7385;0.369906;0.0437126;-0.0410943;-0.926967;43.3618;173.77;-177.08
3.16;-0.588051;-0.439433;1.60152;-2.04787;-1.91553;-0.086419;2.80544;-0.185016;1.37793;-0.254592;1.41341;9.56536;-0.409895;0.157424;0.174878;0.47263;89.0663;0.366011;0.0435991;-0.046425;-0.928266;42.8893;173.217;-177.289
3.18;-0.629048;-0.477463;1.59974;-2.05194;-1.88717;-0.0913902;2.7893;-0.2206;1.45755;-0.242567;1.49398;9.59131;-0.444872;0.160395;0.187564;0.508741;89.3761;0.36176;0.0434515;-0.0514794;-0.929672;42.3756;172.695;-177.484
3.2;-0.670133;-0.514909;1.59786;-2.05667;-1.85726;-0.0961231;2.77282;-0.252321;1.53263;-0.230766;1.57031;9.61698;-0.478416;0.162777;0.199317;0.543237;89.6677;0.35717;0.0432638;-0.0562419;-0.931178;41.8228;172.204;-177.664
3.22;-0.711319;-0.551743;1.5959;-2.062;-1.82589;-0.100622;2.75606;-0.280187;1.60316;-0.219201;1.64216;9.64223;-0.510498;0.164592;0.210158;0.576078;89.9411;0.35226;0.0430374;-0.0607135;-0.932777;41.2324;171.745;-177.828
3.24;-0.752617;-0.587936;1.59384;-2.06785;-1.79316;-0.104893;2.73906;-0.304299;1.66926;-0.207869;1.70946;9.66692;-0.54113;0.165862;0.220124;0.607278;90.1965;0.347047;0.0427758;-0.0649015;-0.93446;40.6064;171.316;-177.978
3.26;-0.794036;-0.623461;1.5917;-2.07415;-1.75915;-0.108939;2.72187;-0.324761;1.73101;-0.196769;1.77217;9.69097;-0.57032;0.166616;0.229254;0.636854;90.434;0.341546;0.0424815;-0.0688131;-0.936218;39.9465;170.917;-178.112
3.28;-0.835585;-0.658294;1.58948;-2.08082;-1.72395;-0.112765;2.70454;-0.341675;1.78852;-0.185898;1.83033;9.71428;-0.598077;0.166886;0.237583;0.664825;90.6541;0.335772;0.0421567;-0.0724561;-0.938045;39.2544;170.547;-178.233
3.3;-0.877271;-0.692411;1.58719;-2.08779;-1.68764;-0.116376;2.68711;-0.355145;1.84187;-0.175255;1.88397;9.73678;-0.624408;0.166705;0.245147;0.691212;90.8571;0.329742;0.0418026;-0.0758382;-0.93993;38.5318;170.204;-178.34
3.32;-0.919098;-0.725792;1.58483;-2.095;-1.6503;-0.119777;2.66962;-0.365272;1.89117;-0.164839;1.93317;9.75842;-0.649321;0.16611;0.25198;0.716034;91.0437;0.323469;0.04142;-0.078967;-0.941868;37.7804;169.889;-178.433
3.34;-0.961072;-0.758417;1.5824;-2.10238;-1.61202;-0.122971;2.65212;-0.37216;1.93652;-0.154646;1.97801;9.77915;-0.672823;0.165138;0.258115;0.739313;91.2145;0.316967;0.0410094;-0.0818506;-0.943848;37.0018;169.601;-178.514
3.36;-1.00319;-0.790267;1.57991;-2.10987;-1.57286;-0.125964;2.63464;-0.375911;1.97799;-0.144675;2.01859;9.79892;-0.69492;0.163828;0.263583;0.761071;91.3702;0.31025;0.0405706;-0.0844968;-0.945863;36.1977;169.338;-178.583
3.38;-1.04547;-0.821326;1.57737;-2.1174;-1.53292;-0.12876;2.61721;-0.376629;2.01571;-0.134925;2.05502;9.81772;-0.715622;0.162219;0.268416;0.78133;91.5117;0.30333;0.040103;-0.0869137;-0.947906;35.3697;169.1;-178.641
3.4;-1.08789;-0.851579;1.57476;-2.12491;-1.49226;-0.131363;2.59988;-0.374415;2.04975;-0.125393;2.08743;9.83552;-0.734938;0.16035;0.272641;0.800112;91.6398;0.296221;0.0396061;-0.0891092;-0.94997;34.5195;168.886;-178.69
3.42;-1.13046;-0.881012;1.57211;-2.13236;-1.45095;-0.133777;2.58266;-0.369373;2.08022;-0.116077;2.11594;9.85232;-0.75288;0.15826;0.276289;0.817441;91.7555;0.288935;0.0390785;-0.0910914;-0.952045;33.6487;168.695;-178.729
3.44;-1.17318;-0.909614;1.56941;-2.13967;-1.40907;-0.136007;2.56558;-0.361604;2.10721;-0.106976;2.14068;9.86811;-0.769463;0.155987;0.279386;0.833344;91.8596;0.281484;0.0385191;-0.0928681;-0.954126;32.7588;168.527;-178.76
3.46;-1.21605;-0.937372;1.56667;-2.1468;-1.36669;-0.138057;2.54866;-0.351213;2.13082;-0.0980874;2.1618;9.88291;-0.784702;0.153568;0.28196;0.847846;91.9533;0.273881;0.0379263;-0.0944473;-0.956205;31.8515;168.381;-178.785
3.48;-1.25905;-0.964278;1.56389;-2.1537;-1.32386;-0.139932;2.53192;-0.338302;2.15114;-0.0894094;2.17942;9.89673;-0.798618;0.15104;0.284034;0.860975;92.0374;0.266136;0.0372987;-0.0958369;-0.958276;30.9283;168.256;-178.803
3.5;-1.3022;-0.990324;1.56108;-2.16032;-1.28066;-0.141635;2.51538;-0.322973;2.16828;-0.0809401;2.1937;9.90957;-0.811231;0.148438;0.285636;0.872764;92.1131;0.258263;0.0366343;-0.0970447;-0.960333;29.9907;168.152;-178.816
3.52;-1.34547;-1.0155;1.55823;-2.16661;-1.23715;-0.143171;2.49905;-0.30533;2.18233;-0.0726777;2.20478;9.92147;-0.822567;0.145794;0.286788;0.883244;92.1814;0.250271;0.0359316;-0.0980785;-0.962368;29.0403;168.067;-178.826
3.54;-1.38886;-1.03981;1.55535;-2.17252;-1.19339;-0.144544;2.48292;-0.285474;2.19337;-0.0646202;2.21282;9.93245;-0.832656;0.143141;0.287515;0.892452;92.2432;0.242173;0.0351886;-0.0989459;-0.964376;28.0785;168.001;-178.833
3.56;-1.43236;-1.06324;1.55245;-2.17801;-1.14944;-0.145757;2.46702;-0.26351;2.20152;-0.0567657;2.21796;9.94255;-0.841528;0.140509;0.287838;0.900424;92.2997;0.233978;0.0344038;-0.0996546;-0.966353;27.1068;167.954;-178.838
3.58;-1.47597;-1.08579;1.54952;-2.18305;-1.10535;-0.146816;2.45133;-0.239538;2.20687;-0.0491124;2.22037;9.9518;-0.84922;0.137926;0.287782;0.907203;92.3517;0.225699;0.0335753;-0.100212;-0.968291;26.1266;167.923;-178.842
3.6;-1.51968;-1.10745;1.54658;-2.18758;-1.06118;-0.147723;2.43586;-0.213663;2.2095;-0.0416582;2.2202;9.96023;-0.855769;0.135418;0.287367;0.91283;92.4003;0.217344;0.0327016;-0.100626;-0.970188;25.1393;167.909;-178.846
3.62;-1.56347;-1.12823;1.54361;-2.19158;-1.01699;-0.148483;2.42061;-0.185987;2.20953;-0.0344013;2.21761;9.96789;-0.861217;0.13301;0.286616;0.917352;92.4465;0.208925;0.0317812;-0.100903;-0.972037;24.1461;167.91;-178.851
3.64;-1.60734;-1.14813;1.54064;-2.19501;-0.972817;-0.1491;2.40555;-0.156613;2.20704;-0.0273398;2.21276;9.97482;-0.86561;0.130723;0.285548;0.920819;92.491;0.200451;0.0308128;-0.10105;-0.973836;23.1483;167.926;-178.858
3.66;-1.65127;-1.16715;1.53765;-2.19783;-0.928721;-0.149578;2.39068;-0.125643;2.20213;-0.0204717;2.20581;9.98106;-0.868995;0.128578;0.284186;0.92328;92.5348;0.191932;0.0297952;-0.101076;-0.97558;22.1472;167.957;-178.868
3.68;-1.69525;-1.18528;1.53466;-2.20002;-0.884747;-0.14992;2.376;-0.0931798;2.1949;-0.0137953;2.19692;9.98665;-0.871422;0.126592;0.282549;0.924789;92.5787;0.183377;0.0287274;-0.100986;-0.977265;21.1438;168;-178.881
3.7;-1.73927;-1.20254;1.53166;-2.20155;-0.84094;-0.150131;2.36147;-0.0593268;2.18544;-0.00730841;2.18626;9.99165;-0.872944;0.12478;0.280657;0.925403;92.6235;0.174795;0.0276087;-0.100788;-0.978889;20.1393;168.055;-178.899
3.72;-1.78331;-1.21892;1.52865;-2.20239;-0.797343;-0.150214;2.34709;-0.0241865;2.17386;-0.00100931;2.17399;9.99609;-0.873617;0.123156;0.278531;0.925178;92.6697;0.166194;0.0264387;-0.100488;-0.980449;19.1347;168.122;-178.921
3.74;-1.82736;-1.23443;1.52565;-2.20251;-0.753999;-0.150173;2.33284;0.0121384;2.16024;0.00510396;2.16028;10;-0.873498;0.121731;0.276189;0.924173;92.7181;0.157583;0.025217;-0.100093;-0.981943;18.1309;168.199;-178.948
3.76;-1.8714;-1.24908;1.52265;-2.2019;-0.710947;-0.150011;2.31868;0.0495452;2.14468;0.0110333;2.14528;10.0035;-0.872644;0.120513;0.27365;0.92245;92.7692;0.148969;0.0239438;-0.0996086;-0.983367;17.1289;168.285;-178.981
3.78;-1.91543;-1.26287;1.51965;-2.20052;-0.668224;-0.149733;2.30461;0.0879312;2.12728;0.0167807;2.12917;10.0065;-0.871116;0.119508;0.270933;0.920071;92.8234;0.140358;0.0226194;-0.0990423;-0.984722;16.1293;168.381;-179.021
3.8;-1.95942;-1.27581;1.51666;-2.19837;-0.625867;-0.149341;2.2906;0.127194;2.10814;0.0223479;2.11209;10.0092;-0.868975;0.11872;0.268057;0.917097;92.8813;0.131759;0.0212444;-0.0983997;-0.986004;15.133;168.484;-179.067
3.82;-2.00336;-1.28791;1.51367;-2.19543;-0.583909;-0.14884;2.27662;0.16723;2.08735;0.027737;2.09422;10.0116;-0.866282;0.118151;0.265039;0.913592;92.9432;0.123177;0.0198198;-0.0976868;-0.987213;14.1407;168.594;-179.12
3.84;-2.04723;-1.29917;1.5107;-2.19168;-0.542383;-0.148233;2.26266;0.207936;2.065;0.0329498;2.07571;10.0136;-0.863099;0.117801;0.261898;0.909619;93.0093;0.114617;0.0183468;-0.0969096;-0.988348;13.1528;168.71;-179.179
3.86;-2.09102;-1.30961;1.50775;-2.18711;-0.501319;-0.147523;2.24867;0.249211;2.0412;0.0379882;2.05671;10.0154;-0.859488;0.117667;0.25865;0.905243;93.0799;0.106086;0.0168271;-0.0960738;-0.989409;12.1698;168.832;-179.246
3.88;-2.13471;-1.31923;1.5048;-2.18171;-0.460744;-0.146714;2.23465;0.290952;2.01604;0.0428541;2.03738;10.017;-0.85551;0.117744;0.255312;0.900525;93.155;0.0975866;0.0152627;-0.0951851;-0.990395;11.1924;168.958;-179.32
3.9;-2.17828;-1.32804;1.50188;-2.17547;-0.420686;-0.14581;2.22056;0.333055;1.98962;0.0475495;2.01786;10.0184;-0.851227;0.118026;0.251902;0.895529;93.2347;0.0891239;0.0136557;-0.0942488;-0.991305;10.2206;169.088;-179.401
3.92;-2.22172;-1.33606;1.49897;-2.16838;-0.381167;-0.144813;2.20639;0.375418;1.96203;0.0520763;1.9983;10.0197;-0.846699;0.118504;0.248434;0.890316;93.319;0.0807011;0.0120088;-0.0932704;-0.99214;9.25497;169.221;-179.488
3.94;-2.26501;-1.34329;1.49609;-2.16045;-0.342212;-0.143728;2.1921;0.417939;1.93336;0.0564363;1.97883;10.0208;-0.841986;0.119167;0.244925;0.884947;93.4078;0.0723211;0.010325;-0.092255;-0.9929;8.29558;169.357;-179.583
3.96;-2.30813;-1.34975;1.49322;-2.15167;-0.303839;-0.142557;2.17768;0.460514;1.90373;0.0606316;1.95957;10.0218;-0.837147;0.120004;0.241391;0.87948;93.5009;0.0639863;0.00860745;-0.0912078;-0.993585;7.34258;169.493;-179.684
3.98;-2.35107;-1.35545;1.49038;-2.14203;-0.266069;-0.141304;2.16311;0.50304;1.87321;0.0646639;1.94066;10.0228;-0.832238;0.121;0.237844;0.873975;93.5981;0.0556985;0.00685985;-0.0901338;-0.994195;6.39606;169.631;-179.791
4;-2.39381;-1.3604;1.48757;-2.13155;-0.228916;-0.139972;2.14837;0.545416;1.84191;0.0685352;1.92219;10.0238;-0.827317;0.122141;0.2343;0.868486;93.699;0.0474587;0.0050861;-0.0890377;-0.994732;5.456;169.769;-179.903
4.02;-2.43633;-1.36461;1.48479;-2.12022;-0.192397;-0.138564;2.13343;0.587538;1.80993;0.0722474;1.90427;10.0247;-0.822436;0.123409;0.230773;0.863068;93.8033;0.0392678;0.00329044;-0.0879243;-0.995196;4.52235;169.906;179.979
4.04;-2.47861;-1.3681;1.48203;-2.10805;-0.156523;-0.137083;2.11829;0.629303;1.77735;0.0758024;1.88699;10.0256;-0.81765;0.124786;0.227275;0.857774;93.9105;0.0311258;0.00147741;-0.0867983;-0.995587;3.59498;170.042;179.857
4.06;-2.52065;-1.37087;1.4793;-2.09505;-0.121306;-0.135533;2.10293;0.670609;1.74428;0.0792022;1.87043;10.0265;-0.813009;0.126253;0.223819;0.852653;94.0202;0.0230322;-0.000348142;-0.0856642;-0.995906;2.67369;170.177;179.73
4.08;-2.56241;-1.37295;1.47661;-2.08123;-0.0867544;-0.133916;2.08733;0.711353;1.71082;0.0824486;1.85465;10.0274;-0.808562;0.12779;0.220417;0.847754;94.1317;0.0149861;-0.00218108;-0.0845264;-0.996155;1.75824;170.309;179.6
4.1;-2.60389;-1.37435;1.47395;-2.0666;-0.0528753;-0.132236;2.0715;0.751433;1.67705;0.0855436;1.83969;10.0284;-0.804359;0.129375;0.21708;0.843122;94.2445;0.00698609;-0.00401598;-0.0833891;-0.996333;0.848319;170.438;179.467
4.12;-2.64507;-1.37507;1.47132;-2.05117;-0.0196738;-0.130495;2.05541;0.790745;1.64308;0.088489;1.8256;10.0294;-0.800443;0.130987;0.213819;0.8388;94.3579;0.00096992;0.00584716;0.0822567;0.996442;179.944;9.43567;-0.667962
4.14;-2.68593;-1.37514;1.46873;-2.03497;0.0128471;-0.128697;2.03908;0.829187;1.609;0.0912868;1.81239;10.0304;-0.79686;0.132602;0.210645;0.834829;94.471;0.00888434;0.00766869;0.0811332;0.996483;179.044;9.31328;-0.804141
4.16;-2.72646;-1.37456;1.46617;-2.01801;0.0446861;-0.126844;2.02249;0.866656;1.57491;0.0939388;1.80007;10.0314;-0.79365;0.134198;0.207565;0.831248;94.5832;0.0167601;0.00947437;0.0800227;0.996456;178.148;9.19507;-0.940755
4.18;-2.76665;-1.37336;1.46365;-2.00031;0.0758439;-0.12494;2.00565;0.903049;1.5409;0.0964471;1.78862;10.0325;-0.790854;0.13575;0.20459;0.828091;94.6937;0.0246005;0.0112578;0.0789291;0.996362;177.256;9.08145;-1.07693
4.2;-2.80647;-1.37154;1.46117;-1.9819;0.106323;-0.122988;1.98856;0.938264;1.50707;0.0988135;1.77802;10.0336;-0.788508;0.137234;0.201728;0.825392;94.8015;0.0324094;0.0130123;0.0778562;0.996201;176.367;8.97277;-1.21176
4.22;-2.84592;-1.36911;1.45874;-1.96279;0.136129;-0.120989;1.97122;0.972198;1.47352;0.10104;1.76823;10.0347;-0.786648;0.138627;0.198985;0.823181;94.9057;0.0401908;0.014731;0.0768079;0.995975;175.481;8.86937;-1.34431
4.24;-2.88498;-1.36609;1.45634;-1.94302;0.165266;-0.118947;1.95366;1.00475;1.44034;0.103128;1.75918;10.0358;-0.785306;0.139903;0.196368;0.821485;95.0053;0.0479493;0.0164069;0.0757877;0.995684;174.597;8.77155;-1.47359
4.26;-2.92363;-1.3625;1.45398;-1.92261;0.193745;-0.116865;1.93588;1.03581;1.40763;0.10508;1.75082;10.037;-0.78451;0.141038;0.193883;0.820328;95.0995;0.0556898;0.0180327;0.0747992;0.995327;173.715;8.67957;-1.59859
4.28;-2.96188;-1.35835;1.45166;-1.9016;0.221575;-0.114745;1.9179;1.0653;1.37547;0.106898;1.74305;10.038;-0.784281;0.14201;0.191534;0.819725;95.1872;0.0634174;0.0196021;0.0738451;0.994906;172.833;8.59359;-1.71841
4.3;-2.99969;-1.35364;1.44939;-1.88001;0.248767;-0.11259;1.89974;1.09324;1.34386;0.108584;1.73578;10.0391;-0.784609;0.142816;0.189316;0.819664;95.2681;0.0711374;0.0211133;0.072925;0.994421;171.95;8.51341;-1.83269
4.32;-3.03707;-1.3484;1.44716;-1.85788;0.275333;-0.110402;1.88141;1.11963;1.31282;0.110141;1.72893;10.0401;-0.785479;0.143453;0.187223;0.820127;95.342;0.078855;0.0225658;0.0720376;0.993872;171.068;8.43873;-1.94122
4.34;-3.07401;-1.34264;1.44497;-1.83523;0.301284;-0.108185;1.86294;1.14452;1.28232;0.11157;1.72242;10.041;-0.786872;0.143922;0.185248;0.821095;95.4087;0.0865753;0.0239593;0.0711817;0.993258;170.184;8.36928;-2.04383
4.36;-3.11048;-1.33636;1.44283;-1.81211;0.32663;-0.10594;1.84435;1.16794;1.25236;0.112875;1.71617;10.0418;-0.788771;0.144223;0.183387;0.822551;95.4681;0.0943032;0.0252935;0.0703559;0.99258;169.298;8.30478;-2.14038
4.38;-3.14649;-1.32957;1.44073;-1.78853;0.351382;-0.103671;1.82566;1.18991;1.22293;0.114057;1.71011;10.0425;-0.791159;0.144357;0.181633;0.824477;95.5199;0.102043;0.0265682;0.0695593;0.991837;168.409;8.24496;-2.23071
4.4;-3.18202;-1.3223;1.43868;-1.76452;0.375551;-0.101379;1.80689;1.21047;1.19403;0.11512;1.70417;10.0432;-0.794019;0.144325;0.179979;0.826854;95.5641;0.1098;0.0277833;0.0687905;0.991029;167.517;8.18956;-2.31471
4.42;-3.21707;-1.31456;1.43668;-1.74012;0.399147;-0.0990666;1.78805;1.22964;1.16565;0.116064;1.6983;10.0437;-0.797331;0.14413;0.178422;0.829666;95.6006;0.117578;0.0289388;0.0680487;0.990154;166.622;8.1383;-2.39228
4.44;-3.25162;-1.30634;1.43472;-1.71534;0.42218;-0.0967368;1.76918;1.24746;1.13778;0.116894;1.69244;10.0441;-0.801078;0.143773;0.176954;0.832892;95.6292;0.125381;0.0300348;0.0673325;0.989213;165.723;8.09093;-2.46333
4.46;-3.28568;-1.29767;1.43281;-1.69023;0.444661;-0.0943916;1.75029;1.26395;1.11041;0.117611;1.68654;10.0444;-0.805239;0.143258;0.175571;0.836516;95.6499;0.133213;0.0310714;0.0666411;0.988203;164.819;8.04719;-2.5278
4.48;-3.31923;-1.28856;1.43095;-1.66479;0.4666;-0.0920331;1.73139;1.27914;1.08355;0.118217;1.68055;10.0445;-0.809795;0.142588;0.174267;0.840517;95.6626;0.141078;0.0320488;0.0659734;0.987125;163.909;8.00683;-2.58563
4.5;-3.35227;-1.27901;1.42913;-1.63907;0.488006;-0.0896636;1.71252;1.29306;1.05717;0.118716;1.67443;10.0446;-0.814725;0.141764;0.173036;0.844876;95.6673;0.148978;0.0329673;0.0653284;0.985976;162.994;7.96961;-2.63678
4.52;-3.38479;-1.26904;1.42736;-1.61308;0.50889;-0.0872852;1.6937;1.30575;1.03128;0.119108;1.66814;10.0444;-0.820007;0.140792;0.171875;0.849574;95.6639;0.156918;0.0338273;0.0647052;0.984756;162.073;7.93527;-2.68123
4.54;-3.41679;-1.25866;1.42564;-1.58685;0.529261;-0.0849;1.67494;1.31723;1.00586;0.119398;1.66165;10.0442;-0.825619;0.139675;0.170776;0.854588;95.6524;0.1649;0.0346293;0.0641026;0.983462;161.145;7.90357;-2.71897
4.56;-3.44826;-1.24788;1.42396;-1.5604;0.549127;-0.0825099;1.65626;1.32752;0.980911;0.119587;1.65494;10.0437;-0.831537;0.138417;0.169736;0.859897;95.6328;0.172926;0.0353737;0.0635199;0.982094;160.211;7.87426;-2.75002
4.58;-3.4792;-1.2367;1.42234;-1.53376;0.5685;-0.0801171;1.63769;1.33667;0.956426;0.119677;1.64796;10.0432;-0.837736;0.137022;0.168749;0.865479;95.6051;0.181;0.0360611;0.0629561;0.980649;159.269;7.84712;-2.77439
4.6;-3.50961;-1.22514;1.42076;-1.50694;0.587388;-0.0777235;1.61924;1.34471;0.932397;0.119671;1.64071;10.0424;-0.844191;0.135495;0.167811;0.871308;95.5694;0.189123;0.0366922;0.0624103;0.979127;158.32;7.8219;-2.79213
4.62;-3.53948;-1.21321;1.41923;-1.47997;0.605799;-0.0753309;1.60093;1.35165;0.908815;0.119571;1.63315;10.0416;-0.850874;0.133841;0.166916;0.877361;95.5256;0.197296;0.0372677;0.0618815;0.977524;157.363;7.79837;-2.80329
4.64;-3.56881;-1.20091;1.41775;-1.45288;0.623743;-0.0729413;1.58279;1.35753;0.885675;0.11938;1.62529;10.0406;-0.857758;0.132063;0.16606;0.88361;95.474;0.205522;0.0377883;0.0613688;0.97584;156.397;7.77629;-2.80792
4.66;-3.59759;-1.18826;1.41631;-1.42568;0.641229;-0.0705563;1.56484;1.36238;0.862969;0.119101;1.61709;10.0394;-0.864813;0.130168;0.165239;0.890028;95.4145;0.213802;0.038255;0.0608715;0.974073;155.424;7.75543;-2.80613
4.68;-3.62584;-1.17526;1.41492;-1.39839;0.658265;-0.0681778;1.54708;1.36623;0.840691;0.118734;1.60855;10.0381;-0.872009;0.12816;0.164446;0.896587;95.3472;0.222136;0.0386687;0.0603884;0.97222;154.441;7.73558;-2.79799
4.7;-3.65353;-1.16193;1.41358;-1.37104;0.674859;-0.0658075;1.52955;1.3691;0.818832;0.118284;1.59966;10.0366;-0.879314;0.126044;0.163679;0.903256;95.2723;0.230526;0.0390303;0.0599189;0.97028;153.45;7.7165;-2.78362
4.72;-3.68068;-1.14827;1.41229;-1.34363;0.691021;-0.063447;1.51225;1.37104;0.797387;0.117751;1.59042;10.035;-0.886694;0.123827;0.162933;0.910003;95.19;0.23897;0.0393408;0.059462;0.96825;152.45;7.69798;-2.76316
4.74;-3.70727;-1.13429;1.41105;-1.3162;0.706757;-0.061098;1.4952;1.37206;0.776348;0.11714;1.58082;10.0333;-0.894116;0.121513;0.162202;0.916798;95.1002;0.247469;0.0396015;0.0590169;0.966129;151.441;7.67979;-2.73672
4.76;-3.73332;-1.12;1.40985;-1.28876;0.722077;-0.0587619;1.47843;1.3722;0.755708;0.116451;1.57086;10.0314;-0.901545;0.119107;0.161484;0.923605;95.0034;0.256022;0.0398133;0.0585827;0.963916;150.423;7.66172;-2.70448
4.78;-3.75883;-1.10541;1.40869;-1.26132;0.736988;-0.0564404;1.46194;1.37149;0.73546;0.115688;1.56054;10.0294;-0.908943;0.116617;0.160774;0.93039;94.8995;0.264628;0.0399777;0.0581585;0.961608;149.396;7.64357;-2.66659
4.8;-3.78378;-1.09053;1.40759;-1.2339;0.751498;-0.0541349;1.44575;1.36996;0.715598;0.114852;1.54986;10.0273;-0.916276;0.114047;0.160067;0.937117;94.7888;0.273287;0.0400958;0.0577435;0.959203;148.36;7.62514;-2.62324
4.82;-3.80818;-1.07536;1.40653;-1.20653;0.765615;-0.0518468;1.42988;1.36763;0.696113;0.113947;1.53882;10.025;-0.923503;0.111404;0.159361;0.94375;94.6717;0.281995;0.040169;0.057337;0.9567;147.315;7.60621;-2.57463
4.84;-3.83204;-1.05991;1.40552;-1.1792;0.779345;-0.0495775;1.41434;1.36454;0.676999;0.112974;1.52743;10.0226;-0.930588;0.108693;0.158651;0.950252;94.5482;0.290751;0.0401987;0.0569379;0.954098;146.262;7.58661;-2.52095
4.86;-3.85535;-1.04418;1.40455;-1.15195;0.792697;-0.0473282;1.39914;1.36071;0.658248;0.111936;1.5157;10.0201;-0.937491;0.105921;0.157934;0.956584;94.4187;0.299553;0.0401863;0.0565457;0.951396;145.199;7.56615;-2.46244
4.88;-3.87812;-1.0282;1.40362;-1.12478;0.805678;-0.0451004;1.3843;1.35617;0.639855;0.110836;1.50363;10.0175;-0.944175;0.103094;0.157206;0.962708;94.2834;0.308396;0.0401334;0.0561593;0.948591;144.128;7.54466;-2.39932
4.9;-3.90034;-1.01196;1.40274;-1.09771;0.818294;-0.0428952;1.36982;1.35097;0.621812;0.109675;1.49124;10.0148;-0.950599;0.100217;0.156464;0.968588;94.1427;0.317279;0.0400414;0.0557782;0.945684;143.049;7.52195;-2.33184
4.92;-3.92203;-0.995471;1.40191;-1.07075;0.830552;-0.0407138;1.35572;1.34511;0.604111;0.108457;1.47853;10.012;-0.956725;0.0972982;0.155704;0.974184;93.9969;0.326197;0.0399121;0.0554015;0.942672;141.963;7.49789;-2.26026
4.94;-3.94317;-0.97874;1.40111;-1.04391;0.84246;-0.0385573;1.342;1.33864;0.586746;0.107182;1.46551;10.009;-0.962517;0.0943429;0.154925;0.97946;93.8463;0.335146;0.039747;0.0550284;0.939557;140.868;7.47232;-2.18485
4.96;-3.96378;-0.961775;1.40036;-1.0172;0.854024;-0.0364269;1.32868;1.33159;0.569709;0.105855;1.4522;10.006;-0.967937;0.0913576;0.154124;0.984379;93.6912;0.344122;0.0395479;0.0546583;0.936337;139.767;7.4451;-2.10588
4.98;-3.98386;-0.944581;1.39966;-0.990647;0.865251;-0.0343235;1.31576;1.32397;0.552995;0.104477;1.43862;10.003;-0.97295;0.0883487;0.153297;0.988907;93.5321;0.353119;0.0393165;0.0542904;0.933012;138.659;7.41611;-2.02364
5;-4.00341;-0.927167;1.39899;-0.964248;0.876146;-0.0322481;1.30324;1.31583;0.536594;0.103051;1.42477;9.99979;-0.977521;0.0853226;0.152444;0.993009;93.3693;0.362134;0.0390544;0.0539242;0.929583;137.545;7.38525;-1.93842
5.02;-4.02243;-0.909538;1.39837;-0.938017;0.886717;-0.0302017;1.29114;1.30719;0.520502;0.101578;1.41067;9.99655;-0.98162;0.0822857;0.151561;0.996654;93.2031;0.371159;0.0387637;0.0535589;0.92605;136.425;7.35241;-1.85052
5.04;-4.04093;-0.8917;1.39778;-0.911964;0.896968;-0.0281853;1.27946;1.29809;0.50471;0.100062;1.39634;9.99324;-0.985216;0.0792443;0.150648;0.999812;93.0341;0.38019;0.038446;0.0531941;0.922413;135.301;7.31751;-1.76026
5.06;-4.05891;-0.873661;1.39724;-0.886097;0.906907;-0.0261995;1.2682;1.28854;0.489211;0.098505;1.3818;9.98988;-0.988282;0.0762047;0.149702;1.00246;92.8625;0.389221;0.0381033;0.052829;0.918674;134.171;7.28049;-1.66794
5.08;-4.07638;-0.855426;1.39673;-0.860425;0.916539;-0.0242453;1.25736;1.27859;0.473999;0.0969091;1.36706;9.98646;-0.990794;0.0731732;0.148724;1.00456;92.6889;0.398245;0.0377374;0.0524633;0.914834;133.038;7.2413;-1.57386
5.1;-4.09333;-0.837001;1.39627;-0.834956;0.925869;-0.0223234;1.24695;1.26826;0.459066;0.0952767;1.35214;9.98299;-0.992732;0.0701557;0.147712;1.00611;92.5136;0.407257;0.0373503;0.0520965;0.910895;131.902;7.1999;-1.47836
5.12;-4.10978;-0.818393;1.39584;-0.809697;0.934903;-0.0204345;1.23696;1.25757;0.444406;0.0936103;1.33707;9.97948;-0.994077;0.0671585;0.146665;1.00708;92.3371;0.41625;0.0369438;0.0517281;0.906859;130.763;7.15628;-1.38174
5.14;-4.12572;-0.799607;1.39545;-0.784655;0.943647;-0.0185792;1.22739;1.24657;0.43001;0.0919123;1.32185;9.97593;-0.994816;0.0641873;0.145584;1.00746;92.1598;0.425217;0.03652;0.0513578;0.902728;129.622;7.11044;-1.2843
5.16;-4.14116;-0.780649;1.3951;-0.759836;0.952105;-0.0167582;1.21825;1.23528;0.415873;0.090185;1.30652;9.97236;-0.99494;0.0612477;0.144469;1.00724;91.982;0.434151;0.0360806;0.0509854;0.898504;128.481;7.0624;-1.18637
5.18;-4.15612;-0.761525;1.39478;-0.735245;0.960284;-0.014972;1.20953;1.22372;0.401988;0.0884308;1.29109;9.96876;-0.994442;0.0583454;0.143321;1.00641;91.8043;0.443048;0.0356278;0.0506105;0.89419;127.339;7.0122;-1.08825
5.2;-4.17058;-0.74224;1.3945;-0.710888;0.968186;-0.0132211;1.20122;1.21194;0.388346;0.0866521;1.27558;9.96514;-0.993321;0.0554856;0.14214;1.00497;91.6271;0.451899;0.0351634;0.0502329;0.88979;126.197;6.95988;-0.990218
5.22;-4.18455;-0.722799;1.39425;-0.686769;0.975819;-0.0115061;1.19332;1.19995;0.374942;0.0848514;1.26003;9.96151;-0.99158;0.0526734;0.140927;1.00293;91.4506;0.460699;0.0346893;0.0498527;0.885306;125.056;6.90553;-0.892578
5.24;-4.19805;-0.703209;1.39404;-0.662891;0.983186;-0.0098272;1.18582;1.18779;0.361767;0.0830309;1.24444;9.95787;-0.989227;0.0499135;0.139684;1.00029;91.2754;0.469441;0.0342075;0.0494697;0.880742;123.917;6.84923;-0.795602
5.26;-4.21107;-0.683474;1.39386;-0.639258;0.990291;-0.00818493;1.17873;1.17549;0.348816;0.0811931;1.22884;9.95423;-0.986272;0.0472106;0.138413;0.997056;91.1018;0.47812;0.0337198;0.0490839;0.876101;122.781;6.79109;-0.699558
5.28;-4.22362;-0.663599;1.39371;-0.615873;0.99714;-0.00657957;1.17202;1.16308;0.336081;0.0793404;1.21326;9.9506;-0.982733;0.0445687;0.137116;0.993253;90.9302;0.486729;0.0332282;0.0486955;0.871389;121.648;6.73122;-0.6047
5.3;-4.23571;-0.64359;1.39359;-0.592736;1.00374;-0.0050114;1.1657;1.15058;0.323555;0.0774751;1.19772;9.94697;-0.978629;0.0419918;0.135795;0.988897;90.7609;0.495263;0.0327345;0.0483046;0.866607;120.519;6.66978;-0.511266
5.32;-4.24733;-0.623451;1.39351;-0.56985;1.01008;-0.00348063;1.15975;1.13803;0.31123;0.0755997;1.18224;9.94336;-0.973984;0.0394834;0.134454;0.984013;90.5943;0.503716;0.0322405;0.0479114;0.861761;119.395;6.6069;-0.419482
5.34;-4.2585;-0.603188;1.39345;-0.547215;1.01619;-0.00198746;1.15416;1.12545;0.299101;0.0737165;1.16685;9.93977;-0.968826;0.0370468;0.133094;0.978627;90.4306;0.512085;0.031748;0.0475163;0.856855;118.276;6.54276;-0.329556
5.36;-4.26922;-0.582805;1.39343;-0.524832;1.02205;-0.000532012;1.14893;1.11288;0.287159;0.0718278;1.15158;9.93621;-0.963188;0.0346848;0.13172;0.972771;90.2701;0.520364;0.0312587;0.0471196;0.851893;117.162;6.47754;-0.241678
5.38;-4.2795;-0.562308;1.39343;-0.502699;1.02767;0.000885632;1.14404;1.10035;0.275398;0.0699362;1.13644;9.93268;-0.957104;0.0323997;0.130334;0.966481;90.1131;0.528549;0.0307745;0.0467217;0.846879;116.055;6.41143;-0.156023
5.4;-4.28933;-0.5417;1.39346;-0.480817;1.03307;0.00226543;1.13948;1.08788;0.263811;0.068044;1.12148;9.92918;-0.950613;0.0301939;0.128941;0.959793;89.9599;0.536636;0.0302969;0.0463232;0.841817;114.955;6.34462;-0.0727438
5.42;-4.29873;-0.520987;1.39352;-0.459184;1.03823;0.0036074;1.13524;1.0755;0.252391;0.0661535;1.1067;9.92572;-0.943755;0.0280688;0.127544;0.952748;89.8106;0.544623;0.0298277;0.0459246;0.836711;113.863;6.27734;0.00802298
5.44;-4.3077;-0.500172;1.39361;-0.437796;1.04316;0.0049116;1.13132;1.06325;0.24113;0.0642672;1.09214;9.92231;-0.936574;0.0260257;0.126148;0.94539;89.6654;0.552506;0.0293683;0.0455267;0.831565;112.778;6.2098;0.0861612
5.46;-4.31624;-0.479262;1.39372;-0.416653;1.04787;0.00617814;1.12769;1.05115;0.230022;0.0623875;1.07784;9.91895;-0.929116;0.0240657;0.124756;0.937764;89.5245;0.560282;0.0289204;0.0451301;0.826383;111.701;6.14222;0.161574
